City_ID,City,Lat,Lng,Max Temp,Humidity,Cloudiness,Wind Speed,Current Description,Date
0,Hermanus,-34.4187,19.2345,55.8,88,77,10.09,broken clouds,2021-08-02 03:34:34
1,Albany,42.6001,-73.9662,64.35,94,100,1.03,overcast clouds,2021-08-02 03:34:32
2,Vaini,-21.2,-175.2,75.36,73,20,17.27,few clouds,2021-08-02 03:36:06
3,Aykhal,66.0,111.5,78.1,30,46,13.67,scattered clouds,2021-08-02 03:37:34
4,Emba,48.8264,58.1442,89.49,28,4,7.63,clear sky,2021-08-02 03:37:34
5,Saint George,37.1041,-113.5841,92.62,27,1,1.01,clear sky,2021-08-02 03:37:17
6,Mataura,-46.1927,168.8643,44.47,91,100,6.73,light rain,2021-08-02 03:37:34
7,Pervomayskoye,43.919,46.7102,83.23,47,88,10.71,overcast clouds,2021-08-02 03:37:35
8,Ormara,25.2088,64.6357,82.22,84,96,15.17,overcast clouds,2021-08-02 03:37:35
9,Pekalongan,-6.8886,109.6753,87.01,61,14,3.87,few clouds,2021-08-02 03:37:35
10,New Norfolk,-42.7826,147.0587,56.7,48,76,5.68,broken clouds,2021-08-02 03:37:36
11,Cape Town,-33.9258,18.4232,57.11,88,0,1.99,clear sky,2021-08-02 03:37:26
12,Necochea,-38.5473,-58.7368,40.66,67,0,9.46,clear sky,2021-08-02 03:37:36
13,Cidreira,-30.1811,-50.2056,53.33,94,3,4.97,clear sky,2021-08-02 03:37:37
14,Castro,-24.7911,-50.0119,44.56,97,13,3.22,few clouds,2021-08-02 03:37:37
15,Kodiak,57.79,-152.4072,56.71,88,90,5.75,overcast clouds,2021-08-02 03:33:15
16,Nouakchott,18.0858,-15.9785,76.93,85,80,13.02,broken clouds,2021-08-02 03:37:37
17,Atuona,-9.8,-139.0333,77.43,68,18,11.48,few clouds,2021-08-02 03:37:38
18,Port-Cartier,50.0334,-66.8654,57.74,84,63,5.26,broken clouds,2021-08-02 03:37:38
19,Carutapera,-1.195,-46.02,72.1,89,60,2.3,broken clouds,2021-08-02 03:37:38
20,Nelson Bay,-32.7167,152.15,68.09,60,74,11.79,broken clouds,2021-08-02 03:37:39
21,Punta Arenas,-53.15,-70.9167,41.11,75,40,26.46,scattered clouds,2021-08-02 03:37:39
22,Rikitea,-23.1203,-134.9692,69.35,56,2,20.96,clear sky,2021-08-02 03:35:09
23,Jiuquan,39.7432,98.5174,69.85,39,100,4.52,overcast clouds,2021-08-02 03:37:40
24,Narsaq,60.9167,-46.05,55.62,98,100,2.73,moderate rain,2021-08-02 03:36:56
25,Mahebourg,-20.4081,57.7,68.29,83,75,10.36,broken clouds,2021-08-02 03:36:54
26,Joshimath,30.5667,79.5667,80.19,64,82,3.78,broken clouds,2021-08-02 03:37:40
27,Samarinda,-0.5,117.15,89.17,55,76,5.61,broken clouds,2021-08-02 03:37:41
28,Pasighat,28.0667,95.3333,89.33,65,2,4.07,clear sky,2021-08-02 03:37:41
29,Polovinnoye,54.7914,65.9864,72.95,51,13,11.95,few clouds,2021-08-02 03:37:41
30,Hobart,-42.8794,147.3294,57.06,57,75,4.0,broken clouds,2021-08-02 03:33:24
31,Qaanaaq,77.484,-69.3632,40.39,87,75,3.2,broken clouds,2021-08-02 03:37:42
32,Mega,4.05,38.3,54.86,75,96,15.23,overcast clouds,2021-08-02 03:37:42
33,Dabakala,8.3667,-4.4333,69.06,99,26,3.78,scattered clouds,2021-08-02 03:37:43
34,Taltal,-25.4,-70.4833,56.84,77,39,2.26,scattered clouds,2021-08-02 03:37:43
35,Ushuaia,-54.8,-68.3,40.66,75,40,4.61,scattered clouds,2021-08-02 03:36:07
36,Umm Lajj,25.0213,37.2685,88.43,43,18,3.0,few clouds,2021-08-02 03:37:43
37,Thompson,55.7435,-97.8558,75.36,46,75,10.36,smoke,2021-08-02 03:37:44
38,Guerrero Negro,27.9769,-114.0611,74.25,74,0,12.3,clear sky,2021-08-02 03:37:44
39,Melita,49.2681,-100.9967,65.95,35,100,6.2,overcast clouds,2021-08-02 03:37:44
40,Bredasdorp,-34.5322,20.0403,55.27,94,100,2.3,overcast clouds,2021-08-02 03:37:45
41,Provideniya,64.3833,-173.3,42.91,81,90,17.9,moderate rain,2021-08-02 03:37:45
42,Vardo,70.3705,31.1107,48.4,93,100,17.36,overcast clouds,2021-08-02 03:37:45
43,Agadez,19.75,10.25,86.85,13,2,9.08,clear sky,2021-08-02 03:37:46
44,Dingle,10.9995,122.6711,89.44,62,98,16.67,overcast clouds,2021-08-02 03:36:56
45,Broome,42.2506,-75.833,61.02,98,90,1.01,mist,2021-08-02 03:37:46
46,Port Hardy,50.6996,-127.4199,60.98,82,75,10.36,broken clouds,2021-08-02 03:37:47
47,Dunedin,-45.8742,170.5036,50.81,75,100,13.0,overcast clouds,2021-08-02 03:37:47
48,Taoudenni,22.6783,-3.9836,97.34,28,83,14.16,broken clouds,2021-08-02 03:37:47
49,Luganville,-15.5333,167.1667,74.34,64,49,10.56,scattered clouds,2021-08-02 03:37:48
50,Nagar Karnul,16.4821,78.3247,78.42,67,100,20.07,overcast clouds,2021-08-02 03:37:48
51,Vila,42.0304,-8.1588,55.33,94,84,3.15,broken clouds,2021-08-02 03:37:49
52,Berlevag,70.8578,29.0864,44.6,94,100,14.27,light rain,2021-08-02 03:37:49
53,Iqaluit,63.7506,-68.5145,49.73,93,90,1.99,light rain,2021-08-02 03:37:49
54,Pendleton,45.6721,-118.7886,85.24,49,88,1.99,overcast clouds,2021-08-02 03:37:09
55,Cabo San Lucas,22.8909,-109.9124,87.51,74,17,5.99,few clouds,2021-08-02 03:33:55
56,Greenville,35.6127,-77.3663,75.11,97,90,0.0,overcast clouds,2021-08-02 03:37:50
57,Carnarvon,-24.8667,113.6333,62.67,37,0,21.85,clear sky,2021-08-02 03:37:50
58,Puerto Ayora,-0.7393,-90.3518,70.56,92,43,1.99,scattered clouds,2021-08-02 03:34:30
59,Lebu,-37.6167,-73.65,49.24,82,5,16.28,clear sky,2021-08-02 03:37:51
60,Aguilas,37.4063,-1.5829,75.33,84,92,6.87,overcast clouds,2021-08-02 03:37:51
61,Bluff,-46.6,168.3333,44.8,91,100,12.84,light rain,2021-08-02 03:37:51
62,Marmarion,38.0484,24.3204,88.52,49,0,7.54,clear sky,2021-08-02 03:37:52
63,Hovd,48.0056,91.6419,66.09,40,7,3.67,clear sky,2021-08-02 03:37:52
64,Pevek,69.7008,170.3133,35.91,87,100,16.96,overcast clouds,2021-08-02 03:36:26
65,Bethel,41.3712,-73.414,68.68,92,75,6.91,broken clouds,2021-08-02 03:36:01
66,Ixtapa,20.7,-105.2,77.31,93,57,2.33,broken clouds,2021-08-02 03:37:53
67,Sitka,57.0531,-135.33,62.49,72,75,4.61,broken clouds,2021-08-02 03:33:09
68,Mogadishu,2.0371,45.3438,75.81,84,57,14.43,light rain,2021-08-02 03:36:57
69,Georgetown,5.4112,100.3354,88.9,71,20,1.01,few clouds,2021-08-02 03:33:39
70,Kloulklubed,7.0419,134.2556,79.3,73,100,13.78,moderate rain,2021-08-02 03:37:53
71,Nan,18.8333,100.6667,84.22,70,20,6.91,few clouds,2021-08-02 03:37:54
72,Butaritari,3.0707,172.7902,83.32,68,45,7.74,scattered clouds,2021-08-02 03:37:54
73,Luderitz,-26.6481,15.1594,62.56,36,0,6.64,clear sky,2021-08-02 03:37:55
74,Saldanha,-33.0117,17.9442,46.45,87,27,7.14,scattered clouds,2021-08-02 03:37:55
75,Russell,32.3502,-85.1999,79.88,90,1,0.0,clear sky,2021-08-02 03:37:55
76,Poum,-20.2333,164.0167,70.03,58,1,14.12,clear sky,2021-08-02 03:37:56
77,Kieta,-6.2167,155.6333,82.63,78,26,6.46,light rain,2021-08-02 03:37:56
78,Saint-Pierre,-21.3393,55.4781,65.88,59,75,6.91,broken clouds,2021-08-02 03:37:56
79,Honiara,-9.4333,159.95,80.73,79,77,1.21,broken clouds,2021-08-02 03:37:57
80,Tuatapere,-46.1333,167.6833,44.82,95,100,5.3,overcast clouds,2021-08-02 03:37:26
81,Yangambi,0.8102,24.4336,72.45,84,100,2.86,overcast clouds,2021-08-02 03:37:57
82,Cherskiy,68.75,161.3,43.88,66,72,21.47,broken clouds,2021-08-02 03:36:32
83,Sao Filipe,14.8961,-24.4956,75.25,76,16,0.89,few clouds,2021-08-02 03:37:58
84,Coahuayana,18.7333,-103.6833,85.48,87,64,0.4,broken clouds,2021-08-02 03:36:33
85,Hilo,19.7297,-155.09,76.24,85,70,4.0,light rain,2021-08-02 03:37:58
86,Isangel,-19.55,169.2667,57.31,100,75,5.75,broken clouds,2021-08-02 03:37:59
87,Skjervoy,70.0311,20.9714,48.0,71,77,9.33,broken clouds,2021-08-02 03:37:59
88,Seymchan,62.8833,152.4333,47.91,54,100,18.75,overcast clouds,2021-08-02 03:37:59
89,Pisco,-13.7,-76.2167,62.65,82,90,8.05,overcast clouds,2021-08-02 03:38:00
90,Meulaboh,4.1363,96.1285,83.55,65,92,1.88,overcast clouds,2021-08-02 03:38:00
91,Viransehir,37.2353,39.7631,89.42,26,92,13.02,overcast clouds,2021-08-02 03:38:01
92,Batagay-Alyta,67.8006,130.4114,73.27,38,0,6.78,clear sky,2021-08-02 03:38:01
93,Saint-Philippe,-21.3585,55.7679,65.79,74,38,8.48,scattered clouds,2021-08-02 03:37:17
94,Shahr-E Babak,30.1165,55.1186,80.1,34,39,9.26,scattered clouds,2021-08-02 03:38:01
95,Busselton,-33.65,115.3333,58.05,69,100,9.55,overcast clouds,2021-08-02 03:38:02
96,Blyth,55.1271,-1.5086,52.47,93,98,1.43,overcast clouds,2021-08-02 03:38:02
97,Seoul,37.5683,126.9778,84.61,76,90,8.05,light rain,2021-08-02 03:34:25
98,Mar Del Plata,-38.0023,-57.5575,42.1,31,90,8.01,overcast clouds,2021-08-02 03:36:38
99,Okakarara,-20.5833,17.4333,45.75,49,0,5.5,clear sky,2021-08-02 03:38:03
100,Upernavik,72.7868,-56.1549,41.38,82,2,10.4,clear sky,2021-08-02 03:38:03
101,Tacuati,-23.45,-56.5833,55.56,73,79,2.44,broken clouds,2021-08-02 03:38:03
102,Kaduna,10.5222,7.4383,67.93,98,100,2.33,light rain,2021-08-02 03:38:04
103,Yellowknife,62.456,-114.3525,78.3,38,20,6.91,few clouds,2021-08-02 03:38:04
104,Mount Gambier,-37.8333,140.7667,60.71,55,40,25.32,scattered clouds,2021-08-02 03:38:04
105,Korem,12.5058,39.5228,59.45,74,100,3.04,overcast clouds,2021-08-02 03:38:05
106,Tual,-5.6667,132.75,81.52,78,23,11.34,few clouds,2021-08-02 03:38:05
107,Lotoshino,56.2267,35.6414,65.62,74,89,5.55,overcast clouds,2021-08-02 03:38:05
108,Fort Nelson,58.8053,-122.7002,89.19,33,20,3.44,smoke,2021-08-02 03:38:06
109,Khatanga,71.9667,102.5,71.94,46,87,5.5,overcast clouds,2021-08-02 03:36:42
110,Avarua,-21.2078,-159.775,77.05,94,90,11.5,light rain,2021-08-02 03:36:29
111,Shache,38.4167,77.2406,70.75,49,100,11.45,overcast clouds,2021-08-02 03:38:06
112,Dikson,73.5069,80.5464,42.73,98,99,9.84,overcast clouds,2021-08-02 03:38:07
113,Kapaa,22.0752,-159.319,85.98,75,75,5.01,broken clouds,2021-08-02 03:38:07
114,Madang,-5.2246,145.7966,85.37,68,27,7.85,scattered clouds,2021-08-02 03:38:07
115,Northam,51.0333,-4.2167,55.38,87,49,3.8,scattered clouds,2021-08-02 03:35:53
116,Fukagawa,43.7081,142.0392,89.65,65,91,4.47,overcast clouds,2021-08-02 03:38:08
117,Dakar,14.6937,-17.4441,82.53,78,75,4.61,broken clouds,2021-08-02 03:34:34
118,Jamestown,42.097,-79.2353,62.19,95,20,1.01,fog,2021-08-02 03:33:26
119,Tarauaca,-8.1614,-70.7656,66.81,56,2,2.44,clear sky,2021-08-02 03:38:09
120,Awjilah,29.1081,21.2869,81.45,40,1,5.86,clear sky,2021-08-02 03:38:09
121,Torbay,47.6666,-52.7314,58.75,91,20,13.8,few clouds,2021-08-02 03:35:32
122,Fare,-16.7,-151.0167,77.27,70,2,14.63,clear sky,2021-08-02 03:38:09
123,Palmeira Das Missoes,-27.8994,-53.3136,45.84,82,0,4.56,clear sky,2021-08-02 03:38:10
124,Los Llanos De Aridane,28.6585,-17.9182,67.75,75,90,17.27,overcast clouds,2021-08-02 03:38:10
125,Ancud,-41.8697,-73.8203,45.93,89,100,3.22,overcast clouds,2021-08-02 03:38:10
126,Harper,4.375,-7.7169,76.24,77,100,6.44,overcast clouds,2021-08-02 03:38:11
127,Henties Bay,-22.116,14.2845,69.85,29,0,14.25,clear sky,2021-08-02 03:38:11
128,Hithadhoo,-0.6,73.0833,81.59,72,82,7.11,broken clouds,2021-08-02 03:36:11
129,Praia Da Vitoria,38.7333,-27.0667,74.75,100,90,12.06,light intensity drizzle,2021-08-02 03:38:11
130,Baduria,22.7417,88.7858,89.53,71,99,2.59,overcast clouds,2021-08-02 03:38:12
131,Arraial Do Cabo,-22.9661,-42.0278,65.64,73,22,13.82,few clouds,2021-08-02 03:38:12
132,Mayo,38.8876,-76.5119,72.21,94,90,3.0,overcast clouds,2021-08-02 03:38:12
133,East London,-33.0153,27.9116,61.74,63,75,13.8,light rain,2021-08-02 03:38:13
134,Tubuala,9.5167,-79.0333,80.71,86,100,4.83,overcast clouds,2021-08-02 03:38:13
135,Viedma,-40.8135,-62.9967,50.88,52,12,20.07,few clouds,2021-08-02 03:35:32
136,Xinye,32.5186,112.3522,88.93,65,16,13.73,light rain,2021-08-02 03:38:14
137,Norrtalje,59.758,18.705,61.02,83,65,3.78,broken clouds,2021-08-02 03:38:14
138,Jalu,29.0331,21.5482,82.02,36,1,5.73,clear sky,2021-08-02 03:38:14
139,Kiknur,57.3034,47.2011,69.21,64,84,9.95,broken clouds,2021-08-02 03:38:15
140,Romny,50.751,33.4747,71.98,73,36,8.12,scattered clouds,2021-08-02 03:38:15
141,Ambatondrazaka,-17.8333,48.4167,57.79,92,90,3.0,overcast clouds,2021-08-02 03:38:15
142,Aswan,24.0934,32.907,85.3,15,0,2.3,clear sky,2021-08-02 03:38:16
143,Esperance,-33.8667,121.9,57.04,63,100,16.46,overcast clouds,2021-08-02 03:38:15
144,Te Anau,-45.4167,167.7167,46.35,90,100,2.66,light rain,2021-08-02 03:38:16
145,Sawakin,19.1059,37.3321,89.56,54,40,16.31,scattered clouds,2021-08-02 03:38:16
146,Leh,34.1667,77.5833,63.72,44,4,6.08,clear sky,2021-08-02 03:38:17
147,Lagoa,39.05,-27.9833,71.94,94,100,13.24,overcast clouds,2021-08-02 03:38:17
148,Zykovo,55.9519,93.1461,70.54,49,18,3.36,few clouds,2021-08-02 03:38:17
149,Lisakovsk,52.5369,62.4936,78.85,46,22,4.81,few clouds,2021-08-02 03:38:18
150,Flin Flon,54.7682,-101.865,70.48,46,5,6.15,clear sky,2021-08-02 03:38:18
151,Jaen,38.0,-3.5,63.93,26,100,0.81,overcast clouds,2021-08-02 03:34:02
152,Rocha,-34.4833,-54.3333,43.84,96,0,3.33,clear sky,2021-08-02 03:38:19
153,Litovko,49.2361,135.1742,79.21,52,89,4.97,overcast clouds,2021-08-02 03:38:19
154,Reconquista,-29.15,-59.65,48.83,72,0,5.55,clear sky,2021-08-02 03:38:19
155,Luzhou,28.8724,105.4405,91.81,57,0,3.87,clear sky,2021-08-02 03:38:20
156,Codrington,-38.2667,141.9667,57.83,67,12,20.62,few clouds,2021-08-02 03:38:20
157,Tuktoyaktuk,69.4541,-133.0374,57.2,88,75,4.61,broken clouds,2021-08-02 03:38:20
158,Neiafu,-18.65,-173.9833,74.08,88,75,8.05,light rain,2021-08-02 03:38:21
159,Kaitangata,-46.2817,169.8464,53.92,73,100,4.81,overcast clouds,2021-08-02 03:36:16
160,Vestmannaeyjar,63.4427,-20.2734,53.42,88,86,6.93,overcast clouds,2021-08-02 03:36:49
161,Vao,-22.6667,167.4833,67.35,60,4,13.85,clear sky,2021-08-02 03:38:21
162,Kruisfontein,-34.0033,24.7314,55.89,96,94,5.21,moderate rain,2021-08-02 03:38:21
163,Barrow,71.2906,-156.7887,46.42,81,90,13.8,overcast clouds,2021-08-02 03:36:14
164,Ribeira Grande,38.5167,-28.7,72.72,95,24,11.34,few clouds,2021-08-02 03:38:22
165,Nanortalik,60.1432,-45.2371,45.7,93,100,7.67,moderate rain,2021-08-02 03:38:22
166,Padang,-0.9492,100.3543,84.25,72,100,3.96,light rain,2021-08-02 03:38:23
167,Souillac,-20.5167,57.5167,68.38,83,75,10.36,broken clouds,2021-08-02 03:38:23
168,Nikolskoye,59.7035,30.7861,60.03,76,100,4.83,overcast clouds,2021-08-02 03:36:39
169,Kathmandu,27.7167,85.3167,79.02,78,40,5.75,scattered clouds,2021-08-02 03:38:23
170,Ponta Delgada,37.7333,-25.6667,70.52,94,75,11.5,light intensity drizzle,2021-08-02 03:38:24
171,Hamilton,39.1834,-84.5333,66.61,79,1,0.0,clear sky,2021-08-02 03:38:24
172,Saskylakh,71.9167,114.0833,81.12,33,8,9.46,clear sky,2021-08-02 03:36:36
173,Lompoc,34.6391,-120.4579,69.39,75,1,9.22,clear sky,2021-08-02 03:38:25
174,Ponta Do Sol,32.6667,-17.1,72.23,78,2,4.7,clear sky,2021-08-02 03:38:25
175,Carballo,43.213,-8.691,60.87,93,39,3.62,scattered clouds,2021-08-02 03:38:26
176,Armidale,-30.5167,151.65,62.82,47,6,10.98,clear sky,2021-08-02 03:38:26
177,Kalmunai,7.4167,81.8167,85.6,62,100,5.03,overcast clouds,2021-08-02 03:38:26
178,Kyshtovka,56.555,76.6271,67.05,90,96,7.09,light rain,2021-08-02 03:38:27
179,Port Lincoln,-34.7333,135.8667,53.91,71,100,19.24,light rain,2021-08-02 03:38:27
180,Mehran,33.1222,46.1646,92.68,13,16,5.84,few clouds,2021-08-02 03:38:27
181,Cuiluan,47.72,128.648,69.87,99,100,2.98,light rain,2021-08-02 03:38:28
182,Puerto Carreno,6.189,-67.4859,73.8,90,71,5.44,broken clouds,2021-08-02 03:38:20
183,Santa Vitoria Do Palmar,-33.5189,-53.3681,51.03,93,79,6.15,broken clouds,2021-08-02 03:38:28
184,Aksu,41.1231,80.2644,86.47,10,98,7.43,overcast clouds,2021-08-02 03:38:28
185,Phra Phutthabat,14.7253,100.7954,90.77,99,98,13.33,overcast clouds,2021-08-02 03:38:29
186,Tocache,-8.1842,-76.5125,64.92,98,47,0.45,scattered clouds,2021-08-02 03:38:29
187,Cap-Aux-Meules,47.3821,-61.8597,64.42,77,28,10.36,scattered clouds,2021-08-02 03:38:02
188,Velsk,61.0701,42.0983,60.91,90,32,5.17,scattered clouds,2021-08-02 03:38:30
189,Katsuura,35.1333,140.3,89.71,83,84,10.85,broken clouds,2021-08-02 03:38:30
190,Victoria,22.2855,114.1577,90.97,86,100,5.99,light rain,2021-08-02 03:35:35
191,Airai,-8.9266,125.4092,77.59,41,17,4.16,few clouds,2021-08-02 03:38:31
192,Kalabo,-14.97,22.6814,51.64,67,1,4.92,clear sky,2021-08-02 03:38:31
193,Chuy,-33.6971,-53.4616,50.97,94,88,6.13,overcast clouds,2021-08-02 03:38:31
194,Fairbanks,64.8378,-147.7164,77.34,60,40,3.44,scattered clouds,2021-08-02 03:35:13
195,Gibsons,49.3997,-123.5027,76.95,78,3,3.04,clear sky,2021-08-02 03:38:32
196,Pombas,17.1503,-25.0201,74.98,84,66,8.86,broken clouds,2021-08-02 03:38:32
197,Sultanpur,26.2667,82.0667,83.64,73,63,13.06,broken clouds,2021-08-02 03:38:32
198,Vila Velha,-20.3297,-40.2925,58.95,94,0,2.3,clear sky,2021-08-02 03:36:09
199,Sterling,39.0062,-77.4286,71.74,94,40,3.0,scattered clouds,2021-08-02 03:38:33
200,Lasa,46.6166,10.7002,56.28,89,88,4.76,overcast clouds,2021-08-02 03:38:33
201,San Quintin,30.4833,-115.95,69.82,77,25,10.49,scattered clouds,2021-08-02 03:38:34
202,Sao Felix Do Xingu,-6.6447,-51.995,73.36,55,49,1.54,scattered clouds,2021-08-02 03:38:34
203,Hasaki,35.7333,140.8333,90.28,81,45,11.81,scattered clouds,2021-08-02 03:38:34
204,Port Alfred,-33.5906,26.891,59.94,85,88,10.4,light rain,2021-08-02 03:38:35
205,Mareeba,-17.0,145.4333,81.45,44,1,8.12,clear sky,2021-08-02 03:37:58
206,Almirante,9.3,-82.4,82.89,87,100,5.59,overcast clouds,2021-08-02 03:38:35
207,Winsum,53.33,6.5208,57.97,85,24,11.39,few clouds,2021-08-02 03:38:36
208,Pengcheng,36.4311,114.17,84.7,58,4,8.97,light rain,2021-08-02 03:38:36
209,Sola,-13.8833,167.55,81.27,54,75,0.0,broken clouds,2021-08-02 03:38:36
210,Hambantota,6.1241,81.1185,84.54,79,20,16.11,few clouds,2021-08-02 03:38:37
211,Tilichiki,60.4667,166.1,51.78,78,99,7.61,light rain,2021-08-02 03:38:37
212,Garautha,25.5667,79.3,77.77,89,100,14.25,light rain,2021-08-02 03:38:37
213,Ayorou,14.7308,0.9174,82.06,61,81,12.95,broken clouds,2021-08-02 03:38:38
214,Moyale,3.5167,39.0584,63.36,73,100,12.75,overcast clouds,2021-08-02 03:38:38
215,Imbituba,-28.24,-48.6703,60.69,88,50,7.65,scattered clouds,2021-08-02 03:38:38
216,Lavrentiya,65.5833,-171.0,40.57,90,100,17.34,moderate rain,2021-08-02 03:38:39
217,Roros,62.5747,11.3842,37.24,93,90,3.44,overcast clouds,2021-08-02 03:38:39
218,Bengkulu,-3.8004,102.2655,79.18,87,60,10.76,broken clouds,2021-08-02 03:38:39
219,Tasiilaq,65.6145,-37.6368,44.76,77,100,3.62,overcast clouds,2021-08-02 03:37:42
220,Anadyr,64.75,177.4833,50.5,76,40,6.71,light intensity shower rain,2021-08-02 03:36:20
221,Ahipara,-35.1667,173.1667,57.65,69,21,11.63,few clouds,2021-08-02 03:37:34
222,Igarka,67.4667,86.5833,67.08,61,28,5.75,scattered clouds,2021-08-02 03:38:40
223,Poronaysk,49.2167,143.1167,63.82,70,20,10.09,few clouds,2021-08-02 03:38:40
224,Ayr,55.4627,-4.6339,50.49,93,20,3.44,few clouds,2021-08-02 03:38:41
225,Leningradskiy,69.3833,178.4167,33.44,99,100,17.07,snow,2021-08-02 03:38:41
226,Opuwo,-18.0607,13.84,54.86,39,0,6.67,clear sky,2021-08-02 03:38:41
227,Dickinson,29.4608,-95.0513,86.22,80,1,9.22,clear sky,2021-08-02 03:38:42
228,Nemuro,43.3236,145.575,63.03,97,99,1.7,overcast clouds,2021-08-02 03:38:18
229,Ayan,56.45,138.1667,56.64,83,99,25.64,overcast clouds,2021-08-02 03:38:42
230,Coos Bay,43.3665,-124.2179,61.99,94,90,12.66,overcast clouds,2021-08-02 03:36:10
231,Xining,36.6167,101.7667,78.94,37,58,9.04,broken clouds,2021-08-02 03:38:43
232,Bahia Honda,22.9036,-83.1592,79.95,83,13,5.35,few clouds,2021-08-02 03:38:43
233,Zyryanka,65.75,150.85,50.68,47,63,13.27,broken clouds,2021-08-02 03:38:43
234,Amga,60.8953,131.9608,80.22,36,100,10.69,overcast clouds,2021-08-02 03:38:44
235,Kavaratti,10.5669,72.642,82.4,74,54,15.52,broken clouds,2021-08-02 03:38:44
236,Livani,56.3543,26.1758,58.3,98,100,6.93,overcast clouds,2021-08-02 03:38:44
237,Faanui,-16.4833,-151.75,77.9,71,24,14.72,few clouds,2021-08-02 03:38:45
238,Channel-Port Aux Basques,47.5702,-59.1367,58.64,86,1,4.25,clear sky,2021-08-02 03:38:45
239,Klaksvik,62.2266,-6.589,47.32,79,98,4.52,overcast clouds,2021-08-02 03:37:44
240,Mapiri,-15.25,-68.1667,60.85,93,100,1.01,overcast clouds,2021-08-02 03:38:45
241,Ketchikan,55.3422,-131.6461,66.67,72,1,4.61,clear sky,2021-08-02 03:38:46
242,Muroto,33.2833,134.15,86.04,75,100,8.3,overcast clouds,2021-08-02 03:38:46
243,Riyadh,24.6877,46.7219,86.14,11,3,7.74,clear sky,2021-08-02 03:36:23
244,Paamiut,61.994,-49.6678,45.32,95,100,2.55,light rain,2021-08-02 03:38:46
245,Never,46.9896,3.159,55.44,87,50,4.09,scattered clouds,2021-08-02 03:38:47
246,La Ronge,55.1001,-105.2842,73.65,53,75,2.3,smoke,2021-08-02 03:38:47
247,Kahului,20.8947,-156.47,83.46,68,20,28.77,few clouds,2021-08-02 03:38:01
248,Husavik,66.0449,-17.3389,49.91,73,100,1.39,overcast clouds,2021-08-02 03:38:48
249,Kallaste,58.655,27.1592,59.2,75,100,8.43,overcast clouds,2021-08-02 03:38:48
250,Adrar,20.5022,-10.0711,88.63,35,43,11.32,scattered clouds,2021-08-02 03:37:33
251,Kapuskasing,49.4169,-82.4331,59.09,77,75,2.3,broken clouds,2021-08-02 03:38:48
252,Seminole,28.7086,-81.2081,81.55,90,75,3.44,broken clouds,2021-08-02 03:38:49
253,Envira,-7.3,-70.2167,67.08,56,5,3.04,clear sky,2021-08-02 03:38:49
254,Chicama,-7.8447,-79.1469,64.67,84,5,5.5,clear sky,2021-08-02 03:38:49
255,Masallatah,32.6167,14.0,82.24,31,0,6.69,clear sky,2021-08-02 03:38:50
256,Butte,39.6499,-121.5677,93.42,28,1,8.05,clear sky,2021-08-02 03:38:50
257,Birjand,32.8663,59.2211,72.07,16,0,6.91,clear sky,2021-08-02 03:36:48
258,Kiunga,-6.1219,141.2906,83.93,67,94,3.94,overcast clouds,2021-08-02 03:38:51
259,San Ramon,37.7799,-121.978,69.49,73,1,4.0,clear sky,2021-08-02 03:38:51
260,Serebriya,48.4559,27.7192,70.75,71,70,4.72,broken clouds,2021-08-02 03:38:51
261,Pochutla,15.7432,-96.4661,81.45,89,100,4.61,overcast clouds,2021-08-02 03:38:52
262,Severo-Kurilsk,50.6789,156.125,57.7,67,22,13.6,few clouds,2021-08-02 03:38:52
263,Sioux City,42.5,-96.4003,67.66,59,20,1.01,few clouds,2021-08-02 03:36:29
264,Petropavlovsk-Kamchatskiy,53.0452,158.6483,73.99,41,20,4.47,few clouds,2021-08-02 03:37:29
265,Bukachacha,52.9833,116.9167,71.44,47,15,10.16,few clouds,2021-08-02 03:38:53
266,Khandbari,27.3747,87.2039,80.42,79,95,3.85,overcast clouds,2021-08-02 03:38:53
267,Kaabong,3.4836,34.1492,63.27,78,91,4.41,overcast clouds,2021-08-02 03:38:53
268,Klaeng,12.7797,101.6483,91.94,64,100,12.82,overcast clouds,2021-08-02 03:38:54
269,Komsomolskiy,40.4272,71.7189,81.82,39,11,2.3,few clouds,2021-08-02 03:36:50
270,Ngunguru,-35.6167,174.5,64.17,61,33,8.81,scattered clouds,2021-08-02 03:38:54
271,Fortuna,40.5982,-124.1573,58.93,88,1,1.01,clear sky,2021-08-02 03:38:55
272,Marsh Harbour,26.5412,-77.0636,83.88,74,90,13.38,overcast clouds,2021-08-02 03:35:32
273,Tulun,54.5611,100.5792,55.69,96,100,9.35,light rain,2021-08-02 03:38:55
274,Salalah,17.0151,54.0924,77.09,94,90,3.44,light intensity drizzle,2021-08-02 03:38:20
275,Kashi,39.4547,75.9797,69.01,60,90,2.24,light intensity shower rain,2021-08-02 03:38:56
276,Sukhumi,43.0033,41.0153,74.64,75,6,2.33,clear sky,2021-08-02 03:38:56
277,Peleduy,59.6289,112.7406,57.92,93,100,7.54,light rain,2021-08-02 03:38:56
278,Clyde River,70.4692,-68.5914,41.23,87,90,17.27,overcast clouds,2021-08-02 03:38:57
279,Jurm,36.8648,70.8342,75.07,29,0,2.01,clear sky,2021-08-02 03:38:57
280,Dolinsk,47.35,142.8,78.66,63,15,7.94,few clouds,2021-08-02 03:38:57
281,Port-Gentil,-0.7193,8.7815,76.59,78,100,11.7,overcast clouds,2021-08-02 03:37:08
282,Goderich,43.7501,-81.7165,65.91,88,23,6.91,few clouds,2021-08-02 03:38:58
283,Naples,40.8333,14.25,77.76,66,0,4.0,clear sky,2021-08-02 03:38:58
284,Saint-Joseph,-21.3667,55.6167,64.78,70,24,8.3,few clouds,2021-08-02 03:38:59
285,Talnakh,69.4865,88.3972,67.95,58,65,6.62,broken clouds,2021-08-02 03:38:59
286,Fujin,47.26,132.0322,91.44,44,63,6.71,broken clouds,2021-08-02 03:38:59
287,Faya,18.3851,42.4509,64.51,62,62,4.03,broken clouds,2021-08-02 03:39:00
288,Hailar,49.2,119.7,74.46,48,0,7.29,clear sky,2021-08-02 03:39:00
289,Cap Malheureux,-19.9842,57.6142,68.49,85,6,3.0,light rain,2021-08-02 03:38:44
290,Dubrovnik,42.6481,18.0922,80.24,47,0,8.05,clear sky,2021-08-02 03:39:00
291,Bow Island,49.8668,-111.3684,87.82,25,22,6.91,few clouds,2021-08-02 03:39:01
292,Labuhan,-6.8844,112.2051,87.49,54,56,2.93,broken clouds,2021-08-02 03:39:01
293,Grindavik,63.8424,-22.4338,52.56,93,75,6.91,broken clouds,2021-08-02 03:36:59
294,San Carlos De Bariloche,-41.1456,-71.3082,39.43,56,0,1.14,clear sky,2021-08-02 03:38:32
295,Mao,39.8885,4.2658,70.36,78,0,5.75,clear sky,2021-08-02 03:39:02
296,Ahuimanu,21.4447,-157.8378,85.71,58,1,17.27,clear sky,2021-08-02 03:39:02
297,Rietavas,55.7194,21.9311,59.61,96,100,1.63,overcast clouds,2021-08-02 03:39:02
298,Ugoofaaru,5.6667,73.0,83.1,74,96,11.65,overcast clouds,2021-08-02 03:39:03
299,Alice Springs,-23.7,133.8833,74.21,21,41,11.99,scattered clouds,2021-08-02 03:39:03
300,Asau,46.4333,26.4,73.76,85,24,5.97,light rain,2021-08-02 03:36:46
301,Constitucion,-35.3333,-72.4167,52.36,63,0,5.95,clear sky,2021-08-02 03:39:04
302,Egvekinot,66.3167,-179.1667,45.37,59,98,3.78,overcast clouds,2021-08-02 03:39:04
303,General Cepeda,25.3833,-101.45,73.99,46,2,6.11,clear sky,2021-08-02 03:39:04
304,Uvarovka,55.5278,35.6061,65.21,86,100,5.28,overcast clouds,2021-08-02 03:39:05
305,Lazaro Cardenas,17.9583,-102.2,80.49,85,20,4.23,few clouds,2021-08-02 03:37:38
306,Cockburn Town,21.4612,-71.1419,82.02,79,100,20.42,overcast clouds,2021-08-02 03:39:05
307,Durusu,41.3053,28.6767,73.58,92,0,1.99,clear sky,2021-08-02 03:39:06
308,Kutum,14.2,24.6667,69.35,81,89,18.7,overcast clouds,2021-08-02 03:39:06
309,Guider,9.9342,13.9486,72.77,91,100,5.93,overcast clouds,2021-08-02 03:39:06
310,Tawang,27.5833,91.8667,65.57,77,97,3.96,overcast clouds,2021-08-02 03:39:07
311,Kantabanji,20.4833,82.9167,84.61,65,70,13.91,broken clouds,2021-08-02 03:39:07
312,Port Moresby,-9.4431,147.1797,85.42,54,20,17.27,haze,2021-08-02 03:39:07
313,Lalibela,12.0333,39.0333,57.07,87,87,0.63,overcast clouds,2021-08-02 03:39:08
314,Yarada,17.65,83.2667,89.92,62,83,11.5,broken clouds,2021-08-02 03:39:08
315,Kandrian,-6.2167,149.55,82.17,72,90,12.1,overcast clouds,2021-08-02 03:39:08
316,Atar,20.5169,-13.0499,83.48,51,55,8.25,broken clouds,2021-08-02 03:39:09
317,Pyay,18.8167,95.2167,77.97,94,100,6.58,overcast clouds,2021-08-02 03:39:09
318,Caohe,30.2297,115.4335,95.56,55,0,3.78,light rain,2021-08-02 03:39:09
319,Cayenne,4.9333,-52.3333,74.08,90,0,3.44,clear sky,2021-08-02 03:39:10
320,Dafeng,23.4517,108.5881,91.27,60,52,2.82,broken clouds,2021-08-02 03:39:10
321,Izberbash,42.5696,47.8645,80.1,53,35,8.19,scattered clouds,2021-08-02 03:39:10
322,Lana,46.6124,11.1559,63.72,92,68,3.0,broken clouds,2021-08-02 03:39:11
323,Itoman,26.1247,127.6694,88.18,79,40,14.97,scattered clouds,2021-08-02 03:39:11
324,Bubaque,11.2833,-15.8333,78.87,84,90,19.98,moderate rain,2021-08-02 03:39:11
325,Maceio,-9.6658,-35.7353,71.04,94,75,5.75,broken clouds,2021-08-02 03:37:17
326,Voykove,45.3826,36.4372,80.19,63,0,7.67,clear sky,2021-08-02 03:39:12
327,Kamiiso,41.8167,140.65,79.18,83,40,5.75,scattered clouds,2021-08-02 03:39:12
328,Colares,38.7992,-9.4469,69.44,87,99,4.0,overcast clouds,2021-08-02 03:39:12
329,Tiksi,71.6872,128.8694,54.59,58,12,6.29,few clouds,2021-08-02 03:39:13
330,Nyurba,63.2842,118.3319,84.34,34,100,11.99,overcast clouds,2021-08-02 03:39:13
331,Half Moon Bay,37.4636,-122.4286,68.81,76,20,10.36,few clouds,2021-08-02 03:39:13
332,Abakaliki,6.3163,8.1169,73.83,91,100,3.36,overcast clouds,2021-08-02 03:39:14
333,Wanning,18.8003,110.3967,88.92,64,100,13.65,overcast clouds,2021-08-02 03:39:14
334,Panyutyne,48.9333,36.2833,73.78,59,4,4.83,clear sky,2021-08-02 03:39:15
335,Aksum,14.1245,38.7244,58.23,86,87,1.95,overcast clouds,2021-08-02 03:39:15
336,Olinda,-8.0089,-34.8553,73.13,83,40,9.22,scattered clouds,2021-08-02 03:39:15
337,Dicabisagan,17.0818,122.4157,91.47,60,99,5.61,overcast clouds,2021-08-02 03:39:16
338,Bathsheba,13.2167,-59.5167,81.21,78,40,10.36,scattered clouds,2021-08-02 03:36:05
339,Mersing,2.4312,103.8405,89.51,70,40,3.44,scattered clouds,2021-08-02 03:39:16
340,Warmbad,-28.45,18.7333,55.38,25,0,6.67,clear sky,2021-08-02 03:39:16
341,Namibe,-15.1961,12.1522,66.15,87,4,1.81,clear sky,2021-08-02 03:39:17
342,Kuryk,43.2,51.65,89.46,22,0,3.06,clear sky,2021-08-02 03:39:17
343,Avera,33.194,-82.5271,84.07,79,19,6.02,few clouds,2021-08-02 03:39:17
344,Bambous Virieux,-20.3428,57.7575,68.25,83,75,10.36,broken clouds,2021-08-02 03:39:18
345,Abu Samrah,35.3029,37.1841,78.21,46,0,6.38,clear sky,2021-08-02 03:39:18
346,Peruibe,-24.32,-46.9983,59.25,93,95,2.37,overcast clouds,2021-08-02 03:39:18
347,Nabire,-3.3667,135.4833,86.76,64,27,5.06,scattered clouds,2021-08-02 03:39:19
348,Waddan,29.1614,16.139,78.31,32,0,4.27,clear sky,2021-08-02 03:39:19
349,Caravelas,-17.7125,-39.2481,66.99,74,74,8.12,broken clouds,2021-08-02 03:39:19
350,Kavieng,-2.5744,150.7967,82.81,78,9,10.58,light rain,2021-08-02 03:37:18
351,Tupa,-21.9347,-50.5136,64.0,64,59,8.12,broken clouds,2021-08-02 03:37:11
352,Indramayu,-6.3264,108.32,86.67,57,12,11.97,few clouds,2021-08-02 03:39:20
353,Helong,42.5397,128.9972,72.7,97,100,4.56,overcast clouds,2021-08-02 03:39:21
354,Batemans Bay,-35.7167,150.1833,65.19,48,2,12.21,clear sky,2021-08-02 03:39:21
355,Mokobeng,-22.9965,27.6678,51.17,39,0,5.77,clear sky,2021-08-02 03:39:21
356,Shimoda,34.6667,138.95,87.1,73,86,11.07,overcast clouds,2021-08-02 03:39:22
357,Kaliganj,23.4095,89.1402,84.56,82,99,7.34,light rain,2021-08-02 03:39:22
358,Bay Roberts,47.5999,-53.2648,59.5,88,28,5.99,scattered clouds,2021-08-02 03:39:22
359,Paungde,18.4833,95.5,79.3,89,100,7.07,overcast clouds,2021-08-02 03:39:23
360,Langfang,39.5097,116.6947,88.05,54,25,0.63,scattered clouds,2021-08-02 03:39:23
361,Tazovskiy,67.4667,78.7,60.58,60,100,11.14,overcast clouds,2021-08-02 03:39:23
362,Sibu,2.3,111.8167,80.91,83,20,8.05,few clouds,2021-08-02 03:39:24
363,Aklavik,68.2191,-135.0107,74.12,62,97,10.89,overcast clouds,2021-08-02 03:35:45
364,San Miguel,13.4833,-88.1833,83.86,84,40,2.3,scattered clouds,2021-08-02 03:39:24
365,Tevaitoa,-16.7833,-151.5,77.52,70,9,14.29,clear sky,2021-08-02 03:39:24
366,El Sauzal,31.9,-116.6833,67.42,85,3,6.85,clear sky,2021-08-02 03:39:25
367,Uyuni,-20.4597,-66.825,36.1,54,57,6.82,broken clouds,2021-08-02 03:39:25
368,Antofagasta,-23.65,-70.4,56.48,79,40,2.73,scattered clouds,2021-08-02 03:39:26
369,Cabo Rojo,18.0866,-67.1457,80.67,89,64,4.72,broken clouds,2021-08-02 03:39:26
370,Mount Isa,-20.7333,139.5,89.37,22,40,11.5,scattered clouds,2021-08-02 03:38:28
371,Saint-Augustin,51.226,-58.6502,55.2,84,96,9.6,overcast clouds,2021-08-02 03:39:26
372,Gunjur,13.2019,-16.7339,75.27,100,75,9.22,broken clouds,2021-08-02 03:39:27
373,Lakes Entrance,-37.8811,147.981,64.18,45,0,6.44,clear sky,2021-08-02 03:39:27
374,Ilulissat,69.2167,-51.1,57.22,41,0,25.32,clear sky,2021-08-02 03:39:27
375,Chihuahua,28.5,-106.0,74.23,71,63,7.25,broken clouds,2021-08-02 03:36:50
376,Vasterhaninge,59.1167,18.1,62.44,65,52,5.82,broken clouds,2021-08-02 03:39:28
377,Marzuq,14.4,46.4667,79.11,66,33,4.56,scattered clouds,2021-08-02 03:39:28
378,Taga,46.95,24.05,66.31,67,35,1.52,scattered clouds,2021-08-02 03:39:29
379,Likasi,-10.9814,26.7333,52.43,72,33,3.44,scattered clouds,2021-08-02 03:39:29
380,Jacareacanga,-6.2222,-57.7528,77.85,48,68,0.83,broken clouds,2021-08-02 03:39:29
381,Hirara,24.8,125.2833,84.47,84,75,5.75,broken clouds,2021-08-02 03:39:30
382,Amapa,1.0,-52.0,70.32,99,80,1.77,broken clouds,2021-08-02 03:39:30
383,Sinnamary,5.3833,-52.95,76.87,87,11,8.63,few clouds,2021-08-02 03:39:30
384,San Patricio,28.017,-97.5169,86.09,74,1,13.15,clear sky,2021-08-02 03:39:31
385,Groton,41.3501,-72.0784,69.89,76,90,0.0,light rain,2021-08-02 03:39:31
386,Bandiagara,14.3501,-3.6104,79.23,67,50,9.04,scattered clouds,2021-08-02 03:39:31
387,Amuntai,-2.4177,115.2494,90.41,54,80,2.55,broken clouds,2021-08-02 03:39:32
388,Guerrero,17.6667,-100.0,68.23,90,100,5.3,overcast clouds,2021-08-02 03:39:32
389,Palm Coast,29.585,-81.2078,79.02,73,64,1.01,broken clouds,2021-08-02 03:39:32
390,Benguela,-12.5763,13.4055,68.63,87,9,0.72,clear sky,2021-08-02 03:39:33
391,Srednekolymsk,67.45,153.6833,47.73,48,99,8.21,overcast clouds,2021-08-02 03:39:33
392,Ola,59.5833,151.2833,59.34,45,13,21.41,few clouds,2021-08-02 03:39:33
393,Mollendo,-17.0231,-72.0147,59.9,88,68,7.81,broken clouds,2021-08-02 03:39:34
394,Nome,64.5011,-165.4064,54.16,94,90,8.05,light rain,2021-08-02 03:37:44
395,Temple,31.0982,-97.3428,82.49,80,1,4.61,clear sky,2021-08-02 03:39:34
396,Laguna,38.421,-121.4238,87.64,50,1,7.0,clear sky,2021-08-02 03:39:34
397,Takayama,36.1333,137.25,88.39,45,48,5.88,scattered clouds,2021-08-02 03:38:20
398,Tautira,-17.7333,-149.15,80.01,66,3,10.54,clear sky,2021-08-02 03:38:06
399,Kinsale,51.7075,-8.5306,52.97,87,40,5.75,scattered clouds,2021-08-02 03:39:35
400,Bud,39.447,-86.1758,66.29,75,0,6.64,clear sky,2021-08-02 03:39:36
401,Port Elizabeth,-33.918,25.5701,58.1,94,75,10.36,light rain,2021-08-02 03:36:20
402,Shadegan,30.6497,48.6647,89.55,13,0,2.68,clear sky,2021-08-02 03:39:36
403,Nuuk,64.1835,-51.7216,56.01,76,90,0.0,light intensity shower rain,2021-08-02 03:39:36
404,Wad Rawah,15.1603,33.1397,78.42,72,98,14.52,overcast clouds,2021-08-02 03:39:37
405,Ouadda,8.0777,22.4007,66.27,97,100,2.53,light rain,2021-08-02 03:39:37
406,Tura,25.5198,90.2201,79.97,89,93,5.73,overcast clouds,2021-08-02 03:39:37
407,Bure,10.7,37.0667,54.09,96,79,2.64,broken clouds,2021-08-02 03:39:38
408,Dalbandin,28.8947,64.4101,90.86,9,59,9.4,broken clouds,2021-08-02 03:39:38
409,Requena,39.4883,-1.1004,65.98,87,100,4.12,overcast clouds,2021-08-02 03:39:38
410,Ayabe,35.3,135.25,92.68,46,93,7.94,overcast clouds,2021-08-02 03:39:39
411,Mehamn,71.0357,27.8492,46.58,93,75,18.41,light rain,2021-08-02 03:39:39
412,Longyearbyen,78.2186,15.6401,46.24,71,40,12.66,scattered clouds,2021-08-02 03:39:40
413,San Roque,36.2107,-5.3842,72.41,68,53,11.5,broken clouds,2021-08-02 03:39:40
414,Limon,10.0,-83.0333,78.37,85,100,7.25,overcast clouds,2021-08-02 03:39:40
415,Soe,-9.8607,124.284,83.39,40,33,10.13,scattered clouds,2021-08-02 03:39:41
416,Cheyenne,41.14,-104.8203,65.91,59,100,3.0,overcast clouds,2021-08-02 03:39:41
417,Agirish,61.9247,63.0231,63.12,74,11,8.75,few clouds,2021-08-02 03:39:41
418,Bereda,43.2686,-7.5406,55.92,100,77,2.48,broken clouds,2021-08-02 03:39:42
419,Biak,-0.9131,122.8766,82.51,70,16,5.21,few clouds,2021-08-02 03:39:42
420,Boden,65.8252,21.6886,48.2,83,14,3.71,few clouds,2021-08-02 03:39:42
421,Anloga,5.7947,0.8973,75.42,89,32,9.75,scattered clouds,2021-08-02 03:39:01
422,Ambunti,-4.2365,142.8448,92.59,50,65,0.63,broken clouds,2021-08-02 03:39:43
423,Grenville,12.1167,-61.6167,80.65,79,4,12.01,clear sky,2021-08-02 03:39:43
424,Havoysund,70.9963,24.6622,47.28,87,94,16.75,overcast clouds,2021-08-02 03:39:43
425,Christchurch,-43.5333,172.6333,54.32,81,75,5.01,broken clouds,2021-08-02 03:35:45
426,Tonj,7.2737,28.6822,68.52,98,100,7.29,light rain,2021-08-02 03:39:44
427,Nynashamn,58.9034,17.9479,57.11,78,59,6.17,broken clouds,2021-08-02 03:39:44
428,Lima,-12.0432,-77.0282,61.05,85,90,6.91,overcast clouds,2021-08-02 03:37:56
429,Hecun,36.5333,114.1111,83.66,58,8,8.79,light rain,2021-08-02 03:39:45
430,Horadiz,39.4488,47.3353,74.17,54,100,1.59,overcast clouds,2021-08-02 03:39:45
431,Marau,-28.4492,-52.2,43.92,91,1,1.83,clear sky,2021-08-02 03:39:45
432,Caririacu,-7.0422,-39.2836,68.09,68,75,12.66,broken clouds,2021-08-02 03:39:46
433,Sundargarh,22.1167,84.0333,84.09,68,94,10.74,overcast clouds,2021-08-02 03:39:46
434,Thinadhoo,0.5333,72.9333,80.51,75,94,4.09,moderate rain,2021-08-02 03:39:47
435,Arlit,18.7369,7.3853,91.94,34,8,12.06,clear sky,2021-08-02 03:39:47
436,Port Blair,11.6667,92.75,83.35,80,100,20.2,overcast clouds,2021-08-02 03:39:33
437,Chara,56.9064,118.2631,57.04,74,98,3.04,overcast clouds,2021-08-02 03:39:48
438,Sistranda,63.7256,8.834,50.9,68,45,9.13,scattered clouds,2021-08-02 03:39:48
439,Lumut,4.2323,100.6298,86.36,70,20,1.14,few clouds,2021-08-02 03:39:48
440,Whitley Bay,55.0397,-1.4471,52.2,96,100,0.0,overcast clouds,2021-08-02 03:39:49
441,Sabang,5.8933,95.3214,83.53,71,98,20.94,overcast clouds,2021-08-02 03:39:49
442,Baykit,61.67,96.37,73.98,44,100,6.96,overcast clouds,2021-08-02 03:39:49
443,Kanigoro,-8.13,112.219,82.99,65,83,12.26,broken clouds,2021-08-02 03:39:50
444,Sur,22.5667,59.5289,92.12,53,91,6.6,overcast clouds,2021-08-02 03:39:50
445,Luangwa,-15.6167,30.4167,56.01,86,0,2.62,clear sky,2021-08-02 03:39:50
446,Hammerfest,70.6634,23.6821,46.85,81,90,6.91,overcast clouds,2021-08-02 03:39:51
447,Gravelbourg,49.8834,-106.5512,73.67,30,95,9.51,overcast clouds,2021-08-02 03:39:51
448,Arrifes,37.7667,-25.7,68.25,94,75,11.5,light intensity drizzle,2021-08-02 03:39:51
449,Mlonggo,-6.5333,110.7,87.69,52,17,3.27,few clouds,2021-08-02 03:39:52
450,Lensk,60.7253,114.9278,73.24,45,100,8.77,overcast clouds,2021-08-02 03:39:52
451,Valpoi,15.5305,74.1356,81.97,84,78,9.8,broken clouds,2021-08-02 03:39:52
452,Nabha,30.3747,76.1486,87.03,64,15,5.26,few clouds,2021-08-02 03:39:53
453,Banda Aceh,5.5577,95.3222,84.61,64,98,14.25,overcast clouds,2021-08-02 03:39:53
454,Invermere,50.5167,-116.0354,78.51,46,95,1.68,overcast clouds,2021-08-02 03:39:53
455,Sibi,29.5448,67.8764,98.42,39,58,8.03,broken clouds,2021-08-02 03:39:54
456,Hue,16.4667,107.6,96.91,41,40,14.97,light rain,2021-08-02 03:39:27
457,Pecos,31.4229,-103.4932,78.3,69,40,10.36,scattered clouds,2021-08-02 03:39:54
458,Margate,51.3813,1.3862,58.69,76,88,10.42,overcast clouds,2021-08-02 03:35:31
459,San Cristobal,7.7669,-72.225,75.38,98,100,5.86,overcast clouds,2021-08-02 03:39:55
460,Intipuca,13.1969,-88.0544,84.15,78,85,3.49,overcast clouds,2021-08-02 03:39:55
461,Qianguo,45.1171,124.8568,68.74,83,100,8.77,light rain,2021-08-02 03:39:56
462,Namatanai,-3.6667,152.4333,82.31,78,36,8.55,light rain,2021-08-02 03:39:26
463,Colac,-38.3333,143.5833,60.15,63,0,15.21,clear sky,2021-08-02 03:39:56
464,Deputatskiy,69.3,139.9,56.5,41,7,12.84,clear sky,2021-08-02 03:39:56
465,Gambo,4.6482,22.2633,67.44,93,100,0.78,overcast clouds,2021-08-02 03:39:57
466,Boyolangu,-8.1181,111.8935,80.24,76,82,11.34,broken clouds,2021-08-02 03:39:57
467,Balkhash,46.844,74.9804,84.81,24,0,17.9,clear sky,2021-08-02 03:39:57
468,San Felipe,10.3399,-68.7425,72.37,90,66,4.41,broken clouds,2021-08-02 03:39:58
469,Tabou,4.423,-7.3528,76.06,80,97,6.13,overcast clouds,2021-08-02 03:39:58
470,Rusne,55.2964,21.3758,60.89,85,100,4.43,overcast clouds,2021-08-02 03:39:58
471,Biltine,14.5333,20.9167,74.43,75,100,4.38,overcast clouds,2021-08-02 03:39:59
472,Novoagansk,61.9449,76.6625,62.26,64,100,7.58,overcast clouds,2021-08-02 03:39:59
473,Vredendal,-31.6683,18.5012,50.23,79,14,3.67,few clouds,2021-08-02 03:39:59
474,Tarrafal,15.2833,-23.7667,75.99,78,91,3.22,overcast clouds,2021-08-02 03:40:00
475,Enshi,30.3,109.4833,95.5,49,1,0.6,clear sky,2021-08-02 03:40:00
476,Houston,29.7633,-95.3633,86.38,77,1,5.01,clear sky,2021-08-02 03:35:34
477,Praia,14.9215,-23.5087,75.74,78,20,3.44,few clouds,2021-08-02 03:40:01
478,Zhanaozen,43.3,52.8,90.88,9,0,5.5,clear sky,2021-08-02 03:40:01
479,Alofi,-19.0595,-169.9187,78.69,65,14,16.11,few clouds,2021-08-02 03:39:19
480,Nkhata Bay,-11.6066,34.2907,65.07,70,9,6.29,clear sky,2021-08-02 03:40:01
481,Kaili,-3.4626,120.2147,73.44,80,100,2.93,overcast clouds,2021-08-02 03:40:02
482,Pitimbu,-7.4706,-34.8086,72.19,85,35,16.06,scattered clouds,2021-08-02 03:40:07
483,Willowmore,-33.2926,23.4895,44.85,88,31,1.45,scattered clouds,2021-08-02 03:40:08
484,Ambilobe,-13.2,49.05,69.64,73,15,2.64,few clouds,2021-08-02 03:35:37
485,Khovu-Aksy,51.1333,93.6,64.58,47,12,8.86,few clouds,2021-08-02 03:40:08
486,Yokadouma,3.5167,15.05,67.24,99,100,2.48,overcast clouds,2021-08-02 03:40:09
487,Vostok,46.4856,135.8833,85.28,43,58,4.45,broken clouds,2021-08-02 03:40:09
488,Afogados Da Ingazeira,-7.7508,-37.6392,65.21,80,67,13.82,broken clouds,2021-08-02 03:40:09
489,Canto Do Buriti,-8.11,-42.9444,70.86,57,91,8.48,overcast clouds,2021-08-02 03:40:10
490,Bredy,52.4153,60.3411,79.23,45,28,9.46,scattered clouds,2021-08-02 03:40:10
491,Port Macquarie,-31.4333,152.9167,66.16,68,94,2.8,overcast clouds,2021-08-02 03:40:11
492,Netanya,32.3329,34.8599,75.22,67,0,5.99,clear sky,2021-08-02 03:40:11
493,Baryatino,54.3121,34.521,64.96,95,90,5.59,heavy intensity rain,2021-08-02 03:40:11
494,Norman Wells,65.282,-126.8329,84.24,42,20,0.0,smoke,2021-08-02 03:40:12
495,Vilyuysk,63.7553,121.6247,85.21,22,96,12.03,overcast clouds,2021-08-02 03:40:12
496,Touros,-5.1989,-35.4608,76.1,80,8,15.84,clear sky,2021-08-02 03:40:12
497,Coquimbo,-29.9533,-71.3436,53.33,87,0,6.91,clear sky,2021-08-02 03:40:13
498,Tateyama,34.9833,139.8667,89.62,80,88,10.18,overcast clouds,2021-08-02 03:40:13
499,Tapalpa,19.95,-103.7667,58.12,91,62,0.63,broken clouds,2021-08-02 03:40:13
500,Chokurdakh,70.6333,147.9167,51.04,47,30,7.05,scattered clouds,2021-08-02 03:40:14
501,Canutama,-6.5339,-64.3831,72.52,54,7,1.3,clear sky,2021-08-02 03:40:14
502,Inhambane,-23.865,35.3833,53.58,94,0,3.44,clear sky,2021-08-02 03:40:14
503,La Palma,33.8464,-118.0467,91.33,57,1,4.0,clear sky,2021-08-02 03:40:15
504,Tahta,26.7693,31.5021,84.52,17,5,5.06,clear sky,2021-08-02 03:40:15
505,Mirnyy,62.5353,113.9611,79.83,34,100,14.07,overcast clouds,2021-08-02 03:40:16
506,Banyo,6.75,11.8167,62.19,96,100,3.89,overcast clouds,2021-08-02 03:40:16
507,Ust-Nera,64.5667,143.2,63.36,35,1,4.74,clear sky,2021-08-02 03:39:26
508,Bonfim,3.0833,-59.95,72.54,96,100,3.04,overcast clouds,2021-08-02 03:40:16
509,Cauquenes,-35.9671,-72.3225,47.44,49,0,2.48,clear sky,2021-08-02 03:40:17
510,Purgstall,48.0584,15.1348,61.16,95,100,4.92,overcast clouds,2021-08-02 03:40:17
511,Glace Bay,46.1969,-59.957,59.97,93,20,1.99,few clouds,2021-08-02 03:40:17
512,Bethanien,-26.502,17.1583,52.57,27,0,8.1,clear sky,2021-08-02 03:40:18
513,West Odessa,31.8424,-102.4988,76.48,72,1,6.91,clear sky,2021-08-02 03:40:18
514,Kattivakkam,13.2167,80.3167,87.89,51,100,12.73,overcast clouds,2021-08-02 03:40:18
515,Wilmington Island,32.0036,-80.9737,82.44,67,75,5.75,broken clouds,2021-08-02 03:39:43
516,Ballina,-28.8667,153.5667,68.18,77,90,9.22,overcast clouds,2021-08-02 03:40:19
517,Hounde,11.5,-3.5167,71.56,90,12,5.55,few clouds,2021-08-02 03:40:19
518,Portland,45.5234,-122.6762,82.6,58,20,1.99,few clouds,2021-08-02 03:39:59
519,Piacabucu,-10.4056,-36.4344,72.28,72,12,9.46,few clouds,2021-08-02 03:40:20
520,Bongandanga,1.5,21.05,70.39,89,100,1.72,overcast clouds,2021-08-02 03:40:20
521,Kachug,53.9606,105.8817,77.36,41,45,1.92,scattered clouds,2021-08-02 03:40:20
522,Yibin,28.7667,104.6238,94.66,44,0,1.7,clear sky,2021-08-02 03:40:02
523,Subang,-7.1277,108.5283,81.97,64,52,7.09,broken clouds,2021-08-02 03:40:21
524,Buraydah,26.326,43.975,81.05,8,6,10.6,clear sky,2021-08-02 03:40:21
525,Puerto Escondido,15.85,-97.0667,83.23,69,75,4.61,broken clouds,2021-08-02 03:40:22
526,Guarapari,-20.6667,-40.4975,58.89,80,20,4.07,few clouds,2021-08-02 03:40:22
527,San Rafael,-34.6177,-68.3301,50.7,38,0,9.37,clear sky,2021-08-02 03:40:23
528,Freeport,40.6576,-73.5832,70.38,85,90,3.0,overcast clouds,2021-08-02 03:37:49
529,Santiago Del Estero,-27.7951,-64.2615,45.81,34,0,6.11,clear sky,2021-08-02 03:40:23
530,Kemin,42.7846,75.6892,82.67,16,62,3.62,broken clouds,2021-08-02 03:40:23
531,Salinopolis,-0.6136,-47.3561,76.87,81,54,3.8,broken clouds,2021-08-02 03:40:24
532,Comodoro Rivadavia,-45.8667,-67.5,57.06,26,0,14.97,clear sky,2021-08-02 03:40:24
533,Krasnovishersk,60.4078,57.082,60.1,81,100,3.42,overcast clouds,2021-08-02 03:40:24
534,Tommot,58.9564,126.2925,59.27,93,100,6.85,overcast clouds,2021-08-02 03:38:21
535,Lorengau,-2.0226,147.2712,85.55,70,52,9.98,broken clouds,2021-08-02 03:37:27
536,Naze,28.3667,129.4833,85.12,86,89,17.6,overcast clouds,2021-08-02 03:40:25
537,Geraldton,-28.7667,114.6,61.12,67,64,14.97,broken clouds,2021-08-02 03:37:33
538,Bosaso,11.2842,49.1816,89.11,41,66,23.26,broken clouds,2021-08-02 03:38:39
539,Hohhot,40.8106,111.6522,75.49,41,0,4.47,clear sky,2021-08-02 03:40:26
540,Samarai,-10.6167,150.6667,79.32,63,92,9.4,overcast clouds,2021-08-02 03:40:26
541,North Bend,43.4065,-124.2243,61.92,94,90,12.66,overcast clouds,2021-08-02 03:40:27
542,Talcahuano,-36.7167,-73.1167,47.88,93,0,8.05,clear sky,2021-08-02 03:40:27
543,Sakakah,29.9697,40.2064,78.37,24,0,8.1,clear sky,2021-08-02 03:40:27
544,Murray Bridge,-35.1167,139.2667,59.49,49,30,17.27,light rain,2021-08-02 03:40:28
545,The Valley,18.217,-63.0578,82.26,75,0,14.14,clear sky,2021-08-02 03:40:28
546,Hami,42.8,93.45,80.44,23,3,2.26,clear sky,2021-08-02 03:35:43
547,Penhold,52.1334,-113.8687,78.6,83,75,8.05,light rain,2021-08-02 03:40:28
548,Cheremshanka,56.1192,60.268,67.98,64,96,9.53,overcast clouds,2021-08-02 03:40:29
549,Hofn,64.2539,-15.2082,53.42,92,100,3.29,overcast clouds,2021-08-02 03:40:29
550,Kinshasa,-4.3246,15.3215,68.38,88,90,2.3,overcast clouds,2021-08-02 03:40:30
551,Omboue,-1.5746,9.2618,73.63,84,74,5.57,broken clouds,2021-08-02 03:40:30
552,Goulburn,-34.75,149.7167,55.65,51,3,8.57,clear sky,2021-08-02 03:36:39
553,Acapulco,16.8634,-99.8901,80.76,86,29,3.15,scattered clouds,2021-08-02 03:40:31
554,Filingue,14.3521,3.3168,82.44,64,65,15.28,broken clouds,2021-08-02 03:40:31
555,West Wendover,40.7391,-114.0733,74.41,50,1,12.66,clear sky,2021-08-02 03:38:51
556,Nizhnyaya Maktama,54.8636,52.4281,75.76,44,34,5.03,scattered clouds,2021-08-02 03:40:31
557,Floriano,-6.7669,-43.0225,74.93,51,87,9.55,overcast clouds,2021-08-02 03:40:32
558,Kousseri,12.0769,15.0306,75.16,94,75,9.22,broken clouds,2021-08-02 03:40:32
559,Yulara,-25.2406,130.9889,64.24,22,0,13.8,clear sky,2021-08-02 03:40:32
560,Dzerzhinskoye,56.8344,95.2283,73.49,52,62,0.69,broken clouds,2021-08-02 03:40:33
561,Angoche,-16.2325,39.9086,65.64,77,1,8.77,clear sky,2021-08-02 03:40:33
562,Arkhangelsk,64.5401,40.5433,60.91,100,90,2.24,light intensity shower rain,2021-08-02 03:40:34
563,Panorama,40.5878,23.0315,78.42,63,0,1.99,clear sky,2021-08-02 03:40:34
564,Ranau,5.9538,116.6641,79.45,53,88,0.81,overcast clouds,2021-08-02 03:40:34
565,Dauriya,49.9333,116.8667,78.37,40,7,12.82,clear sky,2021-08-02 03:40:35
566,Ternate,0.8,127.4,84.34,71,87,8.86,overcast clouds,2021-08-02 03:37:31
567,Narrabri,-30.3167,149.7833,74.52,35,0,5.75,clear sky,2021-08-02 03:40:35
568,Havre-Saint-Pierre,50.2334,-63.5986,55.76,94,90,5.75,overcast clouds,2021-08-02 03:40:36
569,Belokurikha,51.9959,84.9896,83.05,33,53,3.02,broken clouds,2021-08-02 03:40:36
570,Dhidhdhoo,6.8833,73.1,83.3,72,99,13.29,overcast clouds,2021-08-02 03:40:36
571,Vorukh,39.8494,70.5838,76.1,39,61,4.65,broken clouds,2021-08-02 03:40:37
572,Nizhniy Kuranakh,58.8353,125.4869,57.63,96,100,3.29,light rain,2021-08-02 03:40:37
573,Nanchang,28.6833,115.8833,94.48,51,0,7.81,light rain,2021-08-02 03:36:09
574,Sao Raimundo Das Mangabeiras,-7.0219,-45.4811,77.68,42,74,10.98,broken clouds,2021-08-02 03:40:37
575,Axim,4.8699,-2.2405,74.86,90,6,3.98,clear sky,2021-08-02 03:40:38
576,Chegdomyn,51.1167,133.0167,68.83,78,100,4.23,overcast clouds,2021-08-02 03:40:38
577,Sao Joao Da Barra,-21.6403,-41.0511,64.49,73,59,4.97,broken clouds,2021-08-02 03:40:38
578,Merauke,-8.4667,140.3333,83.3,62,5,9.48,clear sky,2021-08-02 03:40:39
579,Yumen,40.2833,97.2,74.32,31,65,4.14,broken clouds,2021-08-02 03:40:39
580,Rorvik,64.8621,11.2373,52.02,68,40,11.43,scattered clouds,2021-08-02 03:40:39
581,Orotukan,62.2667,151.7,43.63,65,100,19.08,overcast clouds,2021-08-02 03:40:40
582,Karratha,-20.7377,116.8463,74.73,27,0,17.49,clear sky,2021-08-02 03:40:40
583,Haines Junction,60.7522,-137.5108,78.75,31,65,5.75,broken clouds,2021-08-02 03:40:41
584,Ostrovnoy,68.0531,39.5131,54.73,73,33,10.16,scattered clouds,2021-08-02 03:37:23
585,Guilin,25.2819,110.2864,91.51,49,50,2.71,scattered clouds,2021-08-02 03:40:41
586,Gat,31.61,34.7642,84.4,60,0,3.44,clear sky,2021-08-02 03:36:04
587,Divnogorsk,55.9594,92.3619,70.29,44,7,3.96,clear sky,2021-08-02 03:40:41
588,Hinton,53.4001,-117.5857,75.24,53,98,3.33,overcast clouds,2021-08-02 03:40:42
589,Bocaiuva,-17.1078,-43.815,58.71,80,10,4.74,clear sky,2021-08-02 03:40:42
590,Bom Jardim,-7.7958,-35.5872,64.94,90,16,9.15,few clouds,2021-08-02 03:40:42
591,Damghan,36.1683,54.348,77.18,34,59,1.48,broken clouds,2021-08-02 03:40:43
592,Fukue,32.6881,128.8419,84.56,84,75,11.5,broken clouds,2021-08-02 03:40:43
593,Kokopo,-4.352,152.2633,84.58,68,17,12.57,light rain,2021-08-02 03:40:43
594,Alakurtti,66.9672,30.3491,56.62,99,100,2.3,overcast clouds,2021-08-02 03:40:44
595,Cozumel,20.5083,-86.9458,82.38,89,0,5.99,clear sky,2021-08-02 03:40:44
596,Ushtobe,45.2514,77.9838,91.6,13,0,16.69,clear sky,2021-08-02 03:40:44
597,Miri,4.4148,114.0089,77.14,88,40,8.05,scattered clouds,2021-08-02 03:38:22
598,Rock Sound,24.9,-76.2,83.8,76,32,15.19,scattered clouds,2021-08-02 03:40:45
599,Pangnirtung,66.1451,-65.7125,50.54,82,100,0.34,overcast clouds,2021-08-02 03:39:39
600,Laurel,39.0993,-76.8483,70.75,94,75,1.99,broken clouds,2021-08-02 03:40:46
601,San Mateo Del Mar,16.2,-95.0,81.57,79,100,22.15,overcast clouds,2021-08-02 03:40:46
602,Gorontalo,0.5412,123.0595,87.31,66,27,6.96,scattered clouds,2021-08-02 03:40:46
603,Ystad,55.4297,13.8204,58.98,83,7,13.58,clear sky,2021-08-02 03:39:35
604,Imeni Tsyurupy,55.4957,38.6506,64.78,87,100,2.93,light rain,2021-08-02 03:40:47
605,San Luis,-33.295,-66.3356,49.03,32,0,6.6,clear sky,2021-08-02 03:40:47
606,Ceres,37.5949,-120.9577,91.31,42,1,14.97,clear sky,2021-08-02 03:40:11
607,Aden,12.7794,45.0367,82.92,82,20,17.31,few clouds,2021-08-02 03:40:47
608,Goure,13.9835,10.2704,75.79,81,92,19.46,overcast clouds,2021-08-02 03:40:48
609,Chachapoyas,-6.2317,-77.869,48.78,96,65,5.21,broken clouds,2021-08-02 03:40:48
610,Balclutha,-46.2339,169.75,53.6,73,100,2.8,overcast clouds,2021-08-02 03:40:48
611,Orel-Izumrud,43.4583,39.9244,75.02,85,20,4.0,few clouds,2021-08-02 03:40:49
612,Kudat,6.8837,116.8477,89.53,58,20,17.27,few clouds,2021-08-02 03:40:49
613,Atlatlahucan,18.9333,-98.9,70.23,93,96,6.96,overcast clouds,2021-08-02 03:40:49
614,Rindge,42.7512,-72.0098,63.07,94,100,5.68,moderate rain,2021-08-02 03:36:32
615,Hauterive,46.0901,3.4459,54.09,81,98,3.15,overcast clouds,2021-08-02 03:40:50
616,Grand-Santi,4.25,-54.3833,71.83,99,91,1.88,overcast clouds,2021-08-02 03:40:50
617,Kovdor,67.5662,30.4758,53.19,99,100,3.02,overcast clouds,2021-08-02 03:40:50
618,Holme,56.1138,10.1725,56.77,88,15,11.52,few clouds,2021-08-02 03:40:51
619,Yerofey Pavlovich,53.9667,121.9667,68.31,49,27,6.6,scattered clouds,2021-08-02 03:40:51
620,Belmonte,-15.8631,-38.8828,64.9,74,100,12.68,overcast clouds,2021-08-02 03:40:52
621,Okhotsk,59.3833,143.3,62.1,59,2,15.21,clear sky,2021-08-02 03:40:52
622,Virtsu,58.5716,23.5115,61.99,89,89,13.09,overcast clouds,2021-08-02 03:40:52
623,Alappuzha,9.49,76.3264,83.91,77,100,9.44,overcast clouds,2021-08-02 03:40:52
624,Bourail,-21.5667,165.4833,69.73,51,0,11.45,clear sky,2021-08-02 03:40:53
625,Grenaa,56.4158,10.8783,57.42,92,49,17.65,scattered clouds,2021-08-02 03:40:53
626,Kibre Mengist,5.8833,38.9833,56.95,89,100,3.74,overcast clouds,2021-08-02 03:40:54
627,Tanout,14.9709,8.8879,83.34,54,76,16.84,broken clouds,2021-08-02 03:40:54
628,Chenghai,23.4632,116.768,91.31,70,20,4.47,light rain,2021-08-02 03:40:54
629,Yinchuan,38.4681,106.2731,88.84,19,85,3.29,overcast clouds,2021-08-02 03:40:54
630,Katherine,-14.4667,132.2667,91.72,35,11,4.61,few clouds,2021-08-02 03:40:55
631,Winnemucca,40.973,-117.7357,82.45,32,1,4.61,clear sky,2021-08-02 03:40:55
632,Davila,18.4726,120.5763,80.58,87,100,26.57,moderate rain,2021-08-02 03:40:55
633,Xinqing,48.2333,129.5,69.48,98,100,3.74,overcast clouds,2021-08-02 03:40:56
634,Walvis Bay,-22.9575,14.5053,70.75,19,0,17.27,clear sky,2021-08-02 03:37:21
635,La Asuncion,11.0333,-63.8628,80.33,100,19,11.5,few clouds,2021-08-02 03:40:56
636,Bonavista,48.6499,-53.1147,61.12,84,1,17.63,clear sky,2021-08-02 03:40:57
637,Clarence Town,-32.5833,151.7833,67.95,48,52,5.82,broken clouds,2021-08-02 03:40:57
638,Manaure,11.7751,-72.4445,82.62,74,9,14.05,clear sky,2021-08-02 03:40:57
639,Waipawa,-41.4122,175.5153,52.43,73,13,5.48,few clouds,2021-08-02 03:40:58
640,Rio Gallegos,-51.6226,-69.2181,41.05,56,0,14.97,clear sky,2021-08-02 03:40:58
641,Tra Vinh,9.9347,106.3453,90.41,54,62,15.3,broken clouds,2021-08-02 03:38:36
642,Sambava,-14.2667,50.1667,67.35,86,39,8.84,scattered clouds,2021-08-02 03:40:58
643,Krasnoselkup,65.7,82.4667,69.76,57,57,9.84,broken clouds,2021-08-02 03:40:59
644,Satan,6.8631,124.4086,90.3,57,91,2.77,overcast clouds,2021-08-02 03:40:59
645,Port Hawkesbury,45.6169,-61.3485,62.58,92,1,6.91,clear sky,2021-08-02 03:41:00
646,Itaquyry,-24.9333,-55.2167,48.42,72,10,2.93,clear sky,2021-08-02 03:41:00
647,Ngaoundere,7.3167,13.5833,63.37,96,100,2.17,overcast clouds,2021-08-02 03:41:00
648,Whitehorse,60.7161,-135.0538,86.02,21,20,3.0,few clouds,2021-08-02 03:41:01
649,Seguela,7.9611,-6.6731,67.1,99,30,3.4,scattered clouds,2021-08-02 03:41:01
650,Kondinskoye,59.6481,67.41,65.07,75,2,11.7,clear sky,2021-08-02 03:41:01
651,Osa,57.2829,55.4567,68.13,71,71,4.74,broken clouds,2021-08-02 03:41:02
652,Palpa,-14.5336,-75.1856,64.85,68,1,1.72,clear sky,2021-08-02 03:41:02
653,Urdoma,61.7533,48.5442,60.1,97,100,4.47,overcast clouds,2021-08-02 03:41:02
654,Sigiriya,7.9518,80.7426,84.99,56,100,15.35,overcast clouds,2021-08-02 03:41:03
655,Pacifica,37.6138,-122.4869,68.63,80,20,1.99,few clouds,2021-08-02 03:41:03
656,Aljezur,37.3191,-8.8033,63.73,97,85,6.4,overcast clouds,2021-08-02 03:39:00
657,Kuragino,53.8975,92.6725,69.28,69,20,4.21,few clouds,2021-08-02 03:41:04
658,Champasak,14.75,106.0,86.88,88,100,3.89,overcast clouds,2021-08-02 03:41:04
659,Tongliao,43.6125,122.2653,69.51,80,100,12.39,light rain,2021-08-02 03:41:04
660,Dourbali,11.8091,15.8632,74.73,85,99,6.06,overcast clouds,2021-08-02 03:41:05
661,Iquitos,-3.7481,-73.2472,75.24,88,75,1.14,broken clouds,2021-08-02 03:41:05
662,Lavumisa,-27.31,31.892,56.25,29,4,3.8,clear sky,2021-08-02 03:41:05
663,Aberdeen,57.1437,-2.0981,52.29,87,90,4.61,overcast clouds,2021-08-02 03:40:20
664,Zinder,13.8072,8.9881,79.36,70,100,15.55,overcast clouds,2021-08-02 03:41:06
665,Karabulak,43.3036,44.8964,68.99,59,6,3.56,clear sky,2021-08-02 03:41:06
666,Matay,28.419,30.7792,81.64,39,3,7.23,clear sky,2021-08-02 03:41:06
667,Saint Anthony,45.0205,-93.218,69.15,66,1,0.0,clear sky,2021-08-02 03:41:07
668,Funehiki,37.4333,140.5833,87.8,47,1,10.33,clear sky,2021-08-02 03:41:07
669,Kalanchak,46.2562,33.2907,75.97,66,0,3.27,clear sky,2021-08-02 03:41:07
670,Mahon,39.8885,4.2658,70.36,78,0,5.75,clear sky,2021-08-02 03:40:19
671,Sarangani,5.4033,125.4636,84.11,74,92,15.28,moderate rain,2021-08-02 03:41:08
672,Puerto Baquerizo Moreno,-0.9,-89.6,70.9,87,39,10.98,scattered clouds,2021-08-02 03:41:08
673,Tashtyp,52.7939,89.8983,73.56,51,19,1.63,few clouds,2021-08-02 03:41:09
674,Lata,40.1629,-8.3327,64.92,95,100,0.96,overcast clouds,2021-08-02 03:41:09
675,San Salvador,13.6894,-89.1872,75.43,100,60,2.46,broken clouds,2021-08-02 03:38:04
676,Harer,9.3094,42.1258,57.33,81,32,6.73,scattered clouds,2021-08-02 03:41:09
677,Vanavara,60.34,102.2797,75.6,36,55,9.35,broken clouds,2021-08-02 03:36:51
678,Ekibastuz,51.6667,75.3667,83.62,38,6,14.85,clear sky,2021-08-02 03:41:10
679,Buncrana,55.1333,-7.45,48.31,92,100,4.56,overcast clouds,2021-08-02 03:41:10
680,Kingman,35.1894,-114.053,94.48,31,1,4.61,clear sky,2021-08-02 03:40:23
681,Golden Gate,26.1879,-81.6951,86.99,83,1,3.44,clear sky,2021-08-02 03:41:11
682,Digby,44.6169,-65.7655,56.59,72,40,6.46,scattered clouds,2021-08-02 03:41:11
683,Tolbazy,54.0241,55.8825,69.89,43,98,4.74,overcast clouds,2021-08-02 03:41:11
684,Englewood,39.6478,-104.9878,74.52,56,75,6.91,broken clouds,2021-08-02 03:40:34
685,Cabra,37.4725,-4.4421,66.9,48,91,1.19,overcast clouds,2021-08-02 03:41:12
686,Yar-Sale,66.8333,70.8333,55.08,98,100,11.97,light rain,2021-08-02 03:41:12
687,Ciresu,44.95,27.35,73.4,59,1,6.44,clear sky,2021-08-02 03:41:13
688,Sembe,1.6481,14.5806,69.48,97,96,2.37,light rain,2021-08-02 03:41:13
689,Kendari,-3.945,122.4989,85.68,64,20,3.78,few clouds,2021-08-02 03:41:13
690,Cardston,49.2,-113.3019,82.26,53,94,3.44,overcast clouds,2021-08-02 03:41:13
691,South Valley,35.0101,-106.6781,78.21,57,75,23.02,broken clouds,2021-08-02 03:41:14
692,Bandarbeyla,9.4942,50.8122,82.26,62,23,30.11,few clouds,2021-08-02 03:39:06
693,Sabha,27.0377,14.4283,82.76,14,2,9.4,clear sky,2021-08-02 03:41:14
694,Vila Franca Do Campo,37.7167,-25.4333,70.21,90,55,9.06,broken clouds,2021-08-02 03:41:15
695,Kismayo,-0.3582,42.5454,74.82,84,99,17.25,light rain,2021-08-02 03:41:15
696,Kaoma,-14.7833,24.8,49.95,81,1,5.79,clear sky,2021-08-02 03:41:15
697,Kavarna,43.4333,28.3333,77.58,93,0,13.8,clear sky,2021-08-02 03:41:16
698,Primero De Enero,21.9469,-78.4283,78.66,90,7,5.7,light rain,2021-08-02 03:41:16
699,Yuanping,38.7153,112.7575,81.66,39,3,2.89,clear sky,2021-08-02 03:41:16
700,Balabac,7.9868,117.0645,86.5,70,55,17.81,broken clouds,2021-08-02 03:41:17
701,Qidong,31.8128,121.6561,91.04,80,24,11.12,few clouds,2021-08-02 03:41:17
702,Mumbwa,-14.9783,27.0619,52.72,74,1,4.38,clear sky,2021-08-02 03:41:17
703,Manokwari,-0.8667,134.0833,84.33,71,34,10.85,scattered clouds,2021-08-02 03:41:18
704,Ponca City,36.707,-97.0856,75.78,80,1,0.0,clear sky,2021-08-02 03:41:18
705,Richards Bay,-28.783,32.0377,68.41,73,95,16.17,overcast clouds,2021-08-02 03:36:58
706,Hosakote,14.2769,77.1699,78.49,59,68,24.02,broken clouds,2021-08-02 03:41:19
